{
	"status": "ok",
	"count": 5,
	"count_total": 5,
	"pages": 0,
	"posts": [
		{
			"id": 2399,
			"title": "Velo Bike Shop",
			"custom_fields": {
				"website": "http:\/\/velobikeshop.com\/",
				"phone_number": "206-325-3292",
				"address": {
					"address": "2151 Sixth Avenue Seattle, WA 98121",
					"lat": "47.6155656",
					"lng": "-122.34094070000003"
				}
			}
		}, {
			"id": 2398,
			"title": "Elliott Bay Bicycle",
			"custom_fields": {
				"website": "http:\/\/elliottbaybicycles.com\/",
				"phone_number": "206-441-8144",
				"address": {
					"address": "2116 Western Ave Seattle WA 98121-2110",
					"lat": "47.6116857",
					"lng": "-122.3451177"
				}
			}
		}, {
			"id": 2397,
			"title": "Electric &#038; Folding Bike NW",
			"custom_fields": {
				"website": "http:\/\/www.electricvehiclesnw.com\/",
				"phone_number": "206-547-4621",
				"address": {
					"address": "4810 17th Ave NW, Seattle, WA 98107, United States",
					"lat": "47.66408249999999",
					"lng": "-122.37859760000003"
				}
			}
		}, {
			"id": 2396,
			"title": "Seattle Electric Bike",
			"custom_fields": {
				"website": "http:\/\/electricbikecentral.com\/",
				"phone_number": "619-564-7028",
				"address": {
					"address": "2021 India St, San Diego, CA 92101, United States",
					"lat": "32.72573279999999",
					"lng": "-117.16894430000002"
				}
			}
		}, {
			"id": 2395,
			"title": "The Mob Shop",
			"custom_fields": {
				"website": "http:\/\/www.themobshop.com\/",
				"phone_number": "805-272-8102",
				"address": {
					"address": "110 W Ojai Ave, Ojai, CA, United States",
					"lat": "34.447947",
					"lng": "-119.24743899999999"
				}
			}
		}
	]
}